{
  "records": [
    {
      "id": 6,
      "fields": {
        "Shul_Name": 273,
        "Code": [
          "L",
          44],
        "Tefilah": [
          "L",
          3],
        "Time": "00:00",
        "Zman_Start_Time": 6,
        "Time_for_formula": "00:00",
        "Cut_off_Time": "00:00",
        "Zman_Cutoff_Time": 12,
        "Zman_Cutoff_Adjustment": "00:00",
        "Zman_Start_Adjustment": "00:00",
        "Note": null,
        "Tefilah_Tefilahs": "['Shachris']",
        "strCode": "['#RC']",
        "Condition": [
          "L",
          "Rosh Chodesh (New Month)"
        ],
        "strZman_Start_Time": "sunrise",
        "strZman_Cutoff_Time": "minchaGedola",
        "Address": "347 Coles Way",
        "State": "NJ",
        "City": "Lakewood",
        "Zip_Code": "08701",
        "Lat": 40.0668637,
        "Lng": -74.2032031,
        "Name": "Testing"
      }
    },
    {
      "id": 7,
      "fields": {
        "Shul_Name": 274,
        "Code": [
          "L",
          64],
        "Tefilah": [
          "L",
          3],
        "Time": "00:00",
        "Zman_Start_Time": 11,
        "Time_for_formula": "00:10",
        "Cut_off_Time": "00:00",
        "Zman_Cutoff_Time": 13,
        "Zman_Cutoff_Adjustment": "00:00",
        "Zman_Start_Adjustment": "00:00",
        "Note": null,
        "Tefilah_Tefilahs": "['Shachris']",
        "strCode": "['#ERS']",
        "Condition": [
          "L",
          "Earliest (Zman Start Time) Of The Week + (Time For Formula)"
        ],
        "strZman_Start_Time": "chatzot",
        "strZman_Cutoff_Time": "minchaKetana",
        "Address": "44 Coles Way",
        "State": "NJ",
        "City": "Lakewood",
        "Zip_Code": "08701",
        "Lat": 40.0684484,
        "Lng": -74.2056221,
        "Name": "Testing1"
      }
    },
    {
      "id": 8,
      "fields": {
        "Shul_Name": 276,
        "Code": [
          "L",
          71],
        "Tefilah": [
          "L",
          3],
        "Time": "04:00 AM",
        "Zman_Start_Time": 1,
        "Time_for_formula": "00:40",
        "Cut_off_Time": "10:00 AM",
        "Zman_Cutoff_Time": 1,
        "Zman_Cutoff_Adjustment": "00:00",
        "Zman_Start_Adjustment": "00:00",
        "Note": null,
        "Tefilah_Tefilahs": "['Shachris']",
        "strCode": "['#RET']",
        "Condition": [
          "L",
          "Start is set by (Time) and then will repeat every (Time For Formula) Till (Cut Off Time);\nif #UCT is applied or (Zman Cutoff Time) + (Zman Cutoff Adjustment);\nif #UST is applied, starting time is set at (Zman Start Time) + (Zman Start Adjustment)"
        ],
        "strZman_Start_Time": "chatzotNight",
        "strZman_Cutoff_Time": "chatzotNight",
        "Address": "269 John St",
        "State": "NJ",
        "City": "Lakewood",
        "Zip_Code": "08701",
        "Lat": 40.0820026,
        "Lng": -74.2080522,
        "Name": "Testing3"
      }
    },
    {
      "id": 9,
      "fields": {
        "Shul_Name": 273,
        "Code": [
          "L",
          65],
        "Tefilah": [
          "L",
          1],
        "Time": "00:00",
        "Zman_Start_Time": 11,
        "Time_for_formula": "00:00",
        "Cut_off_Time": "00:00",
        "Zman_Cutoff_Time": 12,
        "Zman_Cutoff_Adjustment": "00:00",
        "Zman_Start_Adjustment": "00:00",
        "Note": null,
        "Tefilah_Tefilahs": "['Maariv']",
        "strCode": "['#RSE']",
        "Condition": [
          "L",
          "Rounded (To Nearest 5 Min) Earliest (Zman Start Time) Of Week + (Time For Formula)"
        ],
        "strZman_Start_Time": "chatzot",
        "strZman_Cutoff_Time": "minchaGedola",
        "Address": "347 Coles Way",
        "State": "NJ",
        "City": "Lakewood",
        "Zip_Code": "08701",
        "Lat": 40.0668637,
        "Lng": -74.2032031,
        "Name": "Testing"
      }
    },
    {
      "id": 12,
      "fields": {
        "Shul_Name": 275,
        "Code": [
          "L",
          74],
        "Tefilah": [
          "L",
          3],
        "Time": "11:00 AM",
        "Zman_Start_Time": 5,
        "Time_for_formula": "00:00",
        "Cut_off_Time": "00:00",
        "Zman_Cutoff_Time": 5,
        "Zman_Cutoff_Adjustment": "00:00",
        "Zman_Start_Adjustment": "00:00",
        "Note": null,
        "Tefilah_Tefilahs": "['Shachris']",
        "strCode": "['#UCT']",
        "Condition": [
          "L",
          "Time is set by (Time);\nRecord excluded if (Zman Cutoff Time) + (Zman Cutoff Adjustment) is before or equal to (Time)"
        ],
        "strZman_Start_Time": "dawn",
        "strZman_Cutoff_Time": "dawn",
        "Address": "9 Sharon Ct",
        "State": "NJ",
        "City": "Lakewood",
        "Zip_Code": "08701",
        "Lat": 40.0736154,
        "Lng": -74.2142182,
        "Name": "Testing2"
      }
    },
    {
      "id": 13,
      "fields": {
        "Shul_Name": 274,
        "Code": [
          "L",
          75],
        "Tefilah": [
          "L",
          2],
        "Time": "10:00 AM",
        "Zman_Start_Time": 6,
        "Time_for_formula": "00:00",
        "Cut_off_Time": "10:00 PM",
        "Zman_Cutoff_Time": 12,
        "Zman_Cutoff_Adjustment": "00:00",
        "Zman_Start_Adjustment": "01:00",
        "Note": null,
        "Tefilah_Tefilahs": "['Mincha']",
        "strCode": "['#CUT']",
        "Condition": [
          "L",
          "Time is set by (Zman Start Time) + (Time for formula);\nRecord excluded if (Cutoff Time) is before or equal to (Zman Start Time) + (Zman Start Adjustment)"
        ],
        "strZman_Start_Time": "sunrise",
        "strZman_Cutoff_Time": "minchaGedola",
        "Address": "44 Coles Way",
        "State": "NJ",
        "City": "Lakewood",
        "Zip_Code": "08701",
        "Lat": 40.0684484,
        "Lng": -74.2056221,
        "Name": "Testing1"
      }
    },
    {
      "id": 14,
      "fields": {
        "Shul_Name": 276,
        "Code": [
          "L",
          76],
        "Tefilah": [
          "L",
          3],
        "Time": "00:00 AM",
        "Zman_Start_Time": 6,
        "Time_for_formula": "01:00",
        "Cut_off_Time": "00:00",
        "Zman_Cutoff_Time": 1,
        "Zman_Cutoff_Adjustment": "00:00",
        "Zman_Start_Adjustment": "01:00",
        "Note": null,
        "Tefilah_Tefilahs": "['Shachris']",
        "strCode": "['#UST']",
        "Condition": [
          "L",
          "Use (Zman Start Time) + (Time for formula)"
        ],
        "strZman_Start_Time": "sunrise",
        "strZman_Cutoff_Time": "chatzotNight",
        "Address": "269 John St",
        "State": "NJ",
        "City": "Lakewood",
        "Zip_Code": "08701",
        "Lat": 40.0820026,
        "Lng": -74.2080522,
        "Name": "Testing3"
      }
    },
    {
      "id": 15,
      "fields": {
        "Shul_Name": 276,
        "Code": [
          "L",
          54],
        "Tefilah": [
          "L",
          1],
        "Time": "10:00 PM",
        "Zman_Start_Time": 0,
        "Time_for_formula": "00:00",
        "Cut_off_Time": "00:00 AM",
        "Zman_Cutoff_Time": 0,
        "Zman_Cutoff_Adjustment": "00:00",
        "Zman_Start_Adjustment": "00:00",
        "Note": null,
        "Tefilah_Tefilahs": "['Maariv']",
        "strCode": "['#ST']",
        "Condition": [
          "L",
          "Sunday to Thursday (Excluded on Major Yomtov)(Mincha & Maariv Excluded on Erev Major Yomtov)"
        ],
        "strZman_Start_Time": "",
        "strZman_Cutoff_Time": "",
        "Address": "269 John St",
        "State": "NJ",
        "City": "Lakewood",
        "Zip_Code": "08701",
        "Lat": 40.0820026,
        "Lng": -74.2080522,
        "Name": "Testing3"
      }
    },
    {
      "id": 16,
      "fields": {
        "Shul_Name": 276,
        "Code": [
          "L",
          54],
        "Tefilah": [
          "L",
          1],
        "Time": "10:40 PM",
        "Zman_Start_Time": 0,
        "Time_for_formula": "00:00",
        "Cut_off_Time": "00:00 AM",
        "Zman_Cutoff_Time": 0,
        "Zman_Cutoff_Adjustment": "00:00",
        "Zman_Start_Adjustment": "00:00",
        "Note": null,
        "Tefilah_Tefilahs": "['Maariv']",
        "strCode": "['#ST']",
        "Condition": [
          "L",
          "Sunday to Thursday (Excluded on Major Yomtov)(Mincha & Maariv Excluded on Erev Major Yomtov)"
        ],
        "strZman_Start_Time": "",
        "strZman_Cutoff_Time": "",
        "Address": "269 John St",
        "State": "NJ",
        "City": "Lakewood",
        "Zip_Code": "08701",
        "Lat": 40.0820026,
        "Lng": -74.2080522,
        "Name": "Testing3"
      }
    },
    {
      "id": 17,
      "fields": {
        "Shul_Name": 276,
        "Code": [
          "L",
          54],
        "Tefilah": [
          "L",
          1],
        "Time": "10:50 PM",
        "Zman_Start_Time": 0,
        "Time_for_formula": "00:00",
        "Cut_off_Time": "00:00 AM",
        "Zman_Cutoff_Time": 0,
        "Zman_Cutoff_Adjustment": "00:00",
        "Zman_Start_Adjustment": "00:00",
        "Note": null,
        "Tefilah_Tefilahs": "['Maariv']",
        "strCode": "['#ST']",
        "Condition": [
          "L",
          "Sunday to Thursday (Excluded on Major Yomtov)(Mincha & Maariv Excluded on Erev Major Yomtov)"
        ],
        "strZman_Start_Time": "",
        "strZman_Cutoff_Time": "",
        "Address": "269 John St",
        "State": "NJ",
        "City": "Lakewood",
        "Zip_Code": "08701",
        "Lat": 40.0820026,
        "Lng": -74.2080522,
        "Name": "Testing3"
      }
    }
  ]
}