{"records":[{"id":1,"fields":{"Hechsher_Cert":"KCL","Address1":"105 Clifton Avenue","Weekday":"12:00 PM - 11:00 PM","Weekend":"Weekends Closed","Special":"","Dairy_Meat":"Meat","Type":["L","Takeout"],"Website":"https://authentickosherchineserestaurant.com/","City":26,"Address_2nd_Line":"","Price_Point":"$","Price_Point_Option_2":"$10–20","Zip_Code":43,"Lat":40.0914751,"Lng":-74.2142671,"Weekday_Pre_Text":"Mon-Thurs","Phone_Number2":"732 886 8818","Name":"Authentic Kosher Chinese","strCity":"Lakewood","State":"NJ","Api_key":["R","Api_key",1],"Key":"AIzaSyBOtVjKr3D0vZmwg1QlxCy6SR4rVQenaPU","Phone_Number":"<h5><span class=\"fa fa-phone\"></span>732 886 8818</h5>","Address":"105 Clifton Avenue, Lakewood, NJ, 08701"}},{"id":2,"fields":{"Hechsher_Cert":"KCL","Address1":"1255 River Avenue","Weekday":"12:00 PM - 12:00 AM","Weekend":"Weekends Closed","Special":"","Dairy_Meat":"Meat","Type":["L","Takeout"],"Website":"","City":26,"Address_2nd_Line":"","Price_Point":"$$","Price_Point_Option_2":"$20–30","Zip_Code":43,"Lat":40.0539389,"Lng":-74.2202851,"Weekday_Pre_Text":"Mon-Thurs","Phone_Number2":"732-392-6266","Name":"Bun Burger","strCity":"Lakewood","State":"NJ","Api_key":["R","Api_key",1],"Key":"AIzaSyBOtVjKr3D0vZmwg1QlxCy6SR4rVQenaPU","Phone_Number":"<h5><span class=\"fa fa-phone\"></span>732-392-6266</h5>","Address":"1255 River Avenue, Lakewood, NJ, 08701"}},{"id":3,"fields":{"Hechsher_Cert":"KCL","Address1":"2080 W County Line Rd","Weekday":"12:00 PM - 10:00 PM","Weekend":"Weekends Closed","Special":"","Dairy_Meat":"Meat","Type":["L","Takeout"],"Website":"","City":26,"Address_2nd_Line":"","Price_Point":"$$","Price_Point_Option_2":"$20–30","Zip_Code":43,"Lat":40.1212424,"Lng":-74.259469,"Weekday_Pre_Text":"Mon-Thurs","Phone_Number2":"908-868-9525","Name":"Burger Bar","strCity":"Lakewood","State":"NJ","Api_key":["R","Api_key",1],"Key":"AIzaSyBOtVjKr3D0vZmwg1QlxCy6SR4rVQenaPU","Phone_Number":"<h5><span class=\"fa fa-phone\"></span>908-868-9525</h5>","Address":"2080 W County Line Rd, Lakewood, NJ, 08701"}},{"id":4,"fields":{"Hechsher_Cert":"KCL","Address1":"116 Clifton Avenue","Weekday":"12:00 PM - 12:00 AM","Weekend":"Fri: 10:00 AM - 2:30 PM","Special":"","Dairy_Meat":"Meat","Type":["L","Takeout"],"Website":"","City":26,"Address_2nd_Line":"","Price_Point":"$$","Price_Point_Option_2":"$20–30","Zip_Code":43,"Lat":40.091651,"Lng":-74.2148373,"Weekday_Pre_Text":"Mon-Thurs","Phone_Number2":"732 370 5055","Name":"Eat A Pita","strCity":"Lakewood","State":"NJ","Api_key":["R","Api_key",1],"Key":"AIzaSyBOtVjKr3D0vZmwg1QlxCy6SR4rVQenaPU","Phone_Number":"<h5><span class=\"fa fa-phone\"></span>732 370 5055</h5>","Address":"116 Clifton Avenue, Lakewood, NJ, 08701"}},{"id":5,"fields":{"Hechsher_Cert":"KCL","Address1":"32 Cross st ","Weekday":"12:00 PM - 12:00 AM","Weekend":"Weekends Closed","Special":"","Dairy_Meat":"Meat","Type":["L","Takeout"],"Website":"","City":26,"Address_2nd_Line":"Suite 105","Price_Point":"$$","Price_Point_Option_2":"$20–30","Zip_Code":43,"Lat":40.0539224,"Lng":-74.22165269999999,"Weekday_Pre_Text":"Mon-Thurs","Phone_Number2":"732-217-4006","Name":"Flysh","strCity":"Lakewood","State":"NJ","Api_key":["R","Api_key",1],"Key":"AIzaSyBOtVjKr3D0vZmwg1QlxCy6SR4rVQenaPU","Phone_Number":"<h5><span class=\"fa fa-phone\"></span>732-217-4006</h5>","Address":"32 Cross st , Lakewood, NJ, 08701"}},{"id":6,"fields":{"Hechsher_Cert":"KCL","Address1":"163 Kennedy Blvd","Weekday":"12:00 PM - 12:00 AM","Weekend":"Weekends Closed","Special":"","Dairy_Meat":"Meat","Type":["L","Takeout"],"Website":"","City":26,"Address_2nd_Line":"","Price_Point":"$","Price_Point_Option_2":"$10–20","Zip_Code":43,"Lat":40.1070842,"Lng":-74.2164208,"Weekday_Pre_Text":"Mon-Thurs","Phone_Number2":"732-363-6884","Name":"Glatt Bite","strCity":"Lakewood","State":"NJ","Api_key":["R","Api_key",1],"Key":"AIzaSyBOtVjKr3D0vZmwg1QlxCy6SR4rVQenaPU","Phone_Number":"<h5><span class=\"fa fa-phone\"></span>732-363-6884</h5>","Address":"163 Kennedy Blvd, Lakewood, NJ, 08701"}},{"id":7,"fields":{"Hechsher_Cert":"KCL","Address1":"1094 River Avenue","Weekday":"12:00 PM - 11:00 AM","Weekend":"Weekends Closed","Special":"","Dairy_Meat":"Meat","Type":["L","Takeout"],"Website":"","City":26,"Address_2nd_Line":"","Price_Point":"$$","Price_Point_Option_2":"$20–30","Zip_Code":43,"Lat":40.0578282,"Lng":-74.22068610000001,"Weekday_Pre_Text":"Mon-Thurs","Phone_Number2":"732-364-5564","Name":"Glatt Gourmet","strCity":"Lakewood","State":"NJ","Api_key":["R","Api_key",1],"Key":"AIzaSyBOtVjKr3D0vZmwg1QlxCy6SR4rVQenaPU","Phone_Number":"<h5><span class=\"fa fa-phone\"></span>732-364-5564</h5>","Address":"1094 River Avenue, Lakewood, NJ, 08701"}},{"id":9,"fields":{"Hechsher_Cert":"KCL","Address1":"5325 US-9","Weekday":"2:00 PM - 11:00 PM","Weekend":"Weekends Closed","Special":"","Dairy_Meat":"Meat","Type":["L","Takeout"],"Website":"","City":5,"Address_2nd_Line":"","Price_Point":"$$","Price_Point_Option_2":"$20–30","Zip_Code":0,"Lat":40.1266507,"Lng":-74.2216698,"Weekday_Pre_Text":"Mon-Thurs","Phone_Number2":"732-314-1006","Name":"Hamisada","strCity":"Howell","State":"NJ","Api_key":["R","Api_key",1],"Key":"AIzaSyBOtVjKr3D0vZmwg1QlxCy6SR4rVQenaPU","Phone_Number":"<h5><span class=\"fa fa-phone\"></span>732-314-1006</h5>","Address":"5325 US-9, Howell, NJ, "}},{"id":10,"fields":{"Hechsher_Cert":"KCL","Address1":"2164 Lakewood Rd","Weekday":"5:00 PM - 11:00 PM (Thu 1:00AM)","Weekend":"Motz S till 12:00 AM","Special":"","Dairy_Meat":"Meat","Type":["L","Takeout"],"Website":"","City":26,"Address_2nd_Line":"","Price_Point":"$$$","Price_Point_Option_2":"$30–50","Zip_Code":0,"Lat":40.0328722,"Lng":-74.2251114,"Weekday_Pre_Text":"Mon-Thurs","Phone_Number2":"(732) 377-0070","Name":"Ishtabach","strCity":"Lakewood","State":"NJ","Api_key":["R","Api_key",1],"Key":"AIzaSyBOtVjKr3D0vZmwg1QlxCy6SR4rVQenaPU","Phone_Number":"<h5><span class=\"fa fa-phone\"></span>(732) 377-0070</h5>","Address":"2164 Lakewood Rd, Lakewood, NJ, "}},{"id":11,"fields":{"Hechsher_Cert":"KCL","Address1":"37 South clifton Avenue","Weekday":"12:00 PM - 2:00 PM","Weekend":"Weekends Closed","Special":"","Dairy_Meat":"Meat","Type":["L","Takeout"],"Website":"","City":26,"Address_2nd_Line":"","Price_Point":"$$","Price_Point_Option_2":"$20–30","Zip_Code":0,"Lat":40.0889957,"Lng":-74.2139038,"Weekday_Pre_Text":"Mon-Thurs","Phone_Number2":"732-731-9498","Name":"Kipshuto","strCity":"Lakewood","State":"NJ","Api_key":["R","Api_key",1],"Key":"AIzaSyBOtVjKr3D0vZmwg1QlxCy6SR4rVQenaPU","Phone_Number":"<h5><span class=\"fa fa-phone\"></span>732-731-9498</h5>","Address":"37 South clifton Avenue, Lakewood, NJ, "}},{"id":12,"fields":{"Hechsher_Cert":"KCL","Address1":"1001 Madison Ave","Weekday":"4:00 PM - 2:00 AM","Weekend":"Motz S till 2:00 AM","Special":"","Dairy_Meat":"Meat","Type":["L","Takeout"],"Website":"","City":26,"Address_2nd_Line":"","Price_Point":"$","Price_Point_Option_2":"$10–20","Zip_Code":43,"Lat":40.1000102,"Lng":-74.218034,"Weekday_Pre_Text":"Mon-Thurs","Phone_Number2":"(732) 557-1600","Name":"Lipa's Munch","strCity":"Lakewood","State":"NJ","Api_key":["R","Api_key",1],"Key":"AIzaSyBOtVjKr3D0vZmwg1QlxCy6SR4rVQenaPU","Phone_Number":"<h5><span class=\"fa fa-phone\"></span>(732) 557-1600</h5>","Address":"1001 Madison Ave, Lakewood, NJ, 08701"}},{"id":13,"fields":{"Hechsher_Cert":"KCL","Address1":"700 Cedarbridge Avenue","Weekday":"12:00 PM - 10:00 PM","Weekend":"Fri: 9:00 AM - Call, Sun: 2:00 PM - 10:00 PM","Special":"","Dairy_Meat":"Meat","Type":["L","Takeout"],"Website":"","City":26,"Address_2nd_Line":"Unit 7","Price_Point":"$$","Price_Point_Option_2":"$20–30","Zip_Code":0,"Lat":40.0783323,"Lng":-74.19312289999999,"Weekday_Pre_Text":"Mon-Thurs","Phone_Number2":"469-278-6249","Name":"Mikes Chicken","strCity":"Lakewood","State":"NJ","Api_key":["R","Api_key",1],"Key":"AIzaSyBOtVjKr3D0vZmwg1QlxCy6SR4rVQenaPU","Phone_Number":"<h5><span class=\"fa fa-phone\"></span>469-278-6249</h5>","Address":"700 Cedarbridge Avenue, Lakewood, NJ, "}},{"id":14,"fields":{"Hechsher_Cert":"KCL","Address1":"681 River Avenue","Weekday":"12:00 PM - 11:00 PM (Thu 12:00AM)","Weekend":"Weekends Closed","Special":"","Dairy_Meat":"Meat","Type":["L","Takeout"],"Website":"","City":26,"Address_2nd_Line":"","Price_Point":"$","Price_Point_Option_2":"$10–20","Zip_Code":0,"Lat":40.07184340000001,"Lng":-74.2170368,"Weekday_Pre_Text":"Mon-Thurs","Phone_Number2":"732-987-6160","Name":"Pita Hut","strCity":"Lakewood","State":"NJ","Api_key":["R","Api_key",1],"Key":"AIzaSyBOtVjKr3D0vZmwg1QlxCy6SR4rVQenaPU","Phone_Number":"<h5><span class=\"fa fa-phone\"></span>732-987-6160</h5>","Address":"681 River Avenue, Lakewood, NJ, "}},{"id":15,"fields":{"Hechsher_Cert":"BZK","Address1":"416 Clifton Avenue","Weekday":"1:00 PM - 9:00 PM","Weekend":"Fri: 8:00 AM - 3:00 PM, Sun: 3:00 PM - 9:00 PM","Special":"","Dairy_Meat":"Meat","Type":["L","Takeout"],"Website":"","City":26,"Address_2nd_Line":"","Price_Point":"$","Price_Point_Option_2":"$1–10","Zip_Code":0,"Lat":40.0944715,"Lng":-74.21531879999999,"Weekday_Pre_Text":"Mon-Thurs","Phone_Number2":"732-363-6688","Name":"R&s","strCity":"Lakewood","State":"NJ","Api_key":["R","Api_key",1],"Key":"AIzaSyBOtVjKr3D0vZmwg1QlxCy6SR4rVQenaPU","Phone_Number":"<h5><span class=\"fa fa-phone\"></span>732-363-6688</h5>","Address":"416 Clifton Avenue, Lakewood, NJ, "}},{"id":16,"fields":{"Hechsher_Cert":"KCL","Address1":"84 Hillside Blvd","Weekday":"4:00 PM - 10:00 PM","Weekend":"Weekends Closed","Special":"","Dairy_Meat":"Meat","Type":["L","Takeout"],"Website":"https://www.agripasstreet.com/","City":26,"Address_2nd_Line":"","Price_Point":"$$","Price_Point_Option_2":"$20–30","Zip_Code":0,"Lat":40.087412,"Lng":-74.255175,"Weekday_Pre_Text":"Mon-Thurs","Phone_Number2":"732-370-4745","Name":"Agripas Street","strCity":"Lakewood","State":"NJ","Api_key":["R","Api_key",1],"Key":"AIzaSyBOtVjKr3D0vZmwg1QlxCy6SR4rVQenaPU","Phone_Number":"<h5><span class=\"fa fa-phone\"></span>732-370-4745</h5>","Address":"84 Hillside Blvd, Lakewood, NJ, "}},{"id":17,"fields":{"Hechsher_Cert":"KCL","Address1":"115 2nd St","Weekday":"12:00 PM - 10:00 PM","Weekend":"Fri: 9:00 AM - 3:00 PM","Special":"","Dairy_Meat":"Meat","Type":["L","Takeout"],"Website":"","City":26,"Address_2nd_Line":"","Price_Point":"$","Price_Point_Option_2":"$10–20","Zip_Code":0,"Lat":40.09272500000001,"Lng":-74.21119159999999,"Weekday_Pre_Text":"Mon-Thurs","Phone_Number2":"732-901-7874","Name":"Sushi & Chinese","strCity":"Lakewood","State":"NJ","Api_key":["R","Api_key",1],"Key":"AIzaSyBOtVjKr3D0vZmwg1QlxCy6SR4rVQenaPU","Phone_Number":"<h5><span class=\"fa fa-phone\"></span>732-901-7874</h5>","Address":"115 2nd St, Lakewood, NJ, "}},{"id":18,"fields":{"Hechsher_Cert":"KCL","Address1":"255 S New Prospect Rd","Weekday":"12:00 PM - 12:00 AM","Weekend":"Weekends Closed","Special":"","Dairy_Meat":"Meat","Type":["L","Takeout"],"Website":"","City":4,"Address_2nd_Line":"# 6","Price_Point":"$$","Price_Point_Option_2":"$20–30","Zip_Code":0,"Lat":40.1284337,"Lng":-74.2551179,"Weekday_Pre_Text":"Mon-Thurs","Phone_Number2":"732-884-0000","Name":"Teyavon","strCity":"Jackson","State":"NJ","Api_key":["R","Api_key",1],"Key":"AIzaSyBOtVjKr3D0vZmwg1QlxCy6SR4rVQenaPU","Phone_Number":"<h5><span class=\"fa fa-phone\"></span>732-884-0000</h5>","Address":"255 S New Prospect Rd, Jackson, NJ, "}},{"id":19,"fields":{"Hechsher_Cert":"KCL","Address1":"315 Cedar Bridge Avenue","Weekday":"12:00 PM - 11:00 PM (Thu 12:00AM)","Weekend":"Sun: 2:00 PM - 11:00 PM","Special":"","Dairy_Meat":"Meat","Type":["L","Takeout"],"Website":"","City":26,"Address_2nd_Line":"","Price_Point":"$$","Price_Point_Option_2":"$20–30","Zip_Code":0,"Lat":40.0861632,"Lng":-74.2091211,"Weekday_Pre_Text":"Mon-Thurs","Phone_Number2":"732-961-6126","Name":"The Southside Smokehouse","strCity":"Lakewood","State":"NJ","Api_key":["R","Api_key",1],"Key":"AIzaSyBOtVjKr3D0vZmwg1QlxCy6SR4rVQenaPU","Phone_Number":"<h5><span class=\"fa fa-phone\"></span>732-961-6126</h5>","Address":"315 Cedar Bridge Avenue, Lakewood, NJ, "}},{"id":20,"fields":{"Hechsher_Cert":"KCL","Address1":"1757 Madison Avenue","Weekday":"12:00 PM - 12:00 AM","Weekend":"Fri: 9:00 AM - 2:30 PM","Special":"","Dairy_Meat":"Meat","Type":["L","Takeout"],"Website":"","City":26,"Address_2nd_Line":"","Price_Point":"$$","Price_Point_Option_2":"$20–30","Zip_Code":0,"Lat":40.1090804,"Lng":-74.21871209999999,"Weekday_Pre_Text":"Mon-Thurs","Phone_Number2":"732-987-6800","Name":"Yapchik","strCity":"Lakewood","State":"NJ","Api_key":["R","Api_key",1],"Key":"AIzaSyBOtVjKr3D0vZmwg1QlxCy6SR4rVQenaPU","Phone_Number":"<h5><span class=\"fa fa-phone\"></span>732-987-6800</h5>","Address":"1757 Madison Avenue, Lakewood, NJ, "}},{"id":21,"fields":{"Hechsher_Cert":"KCL","Address1":"605 County Rd 526","Weekday":"12:00 PM - 12:00 AM","Weekend":"Weekends Closed","Special":"","Dairy_Meat":"Meat","Type":["L","Takeout"],"Website":"","City":26,"Address_2nd_Line":"","Price_Point":"$","Price_Point_Option_2":"$10–20","Zip_Code":0,"Lat":40.10545,"Lng":-74.2041421,"Weekday_Pre_Text":"Mon-Thurs","Phone_Number2":"732.730.7552","Name":"Yerushalmi","strCity":"Lakewood","State":"NJ","Api_key":["R","Api_key",1],"Key":"AIzaSyBOtVjKr3D0vZmwg1QlxCy6SR4rVQenaPU","Phone_Number":"<h5><span class=\"fa fa-phone\"></span>732.730.7552</h5>","Address":"605 County Rd 526, Lakewood, NJ, "}},{"id":22,"fields":{"Hechsher_Cert":"KCL","Address1":"234 2nd street","Weekday":"1:00 PM - 8:00 PM","Weekend":"Fri: 9:00 AM - 2:00 PM, Sun: Closed","Special":"","Dairy_Meat":"Meat","Type":["L","Takeout"],"Website":"","City":26,"Address_2nd_Line":"","Price_Point":"$","Price_Point_Option_2":"$10–20","Zip_Code":0,"Lat":40.0920797,"Lng":-74.213397,"Weekday_Pre_Text":"Mon-Thurs","Phone_Number2":"732-367-3400","Name":"Yussi's Deli","strCity":"Lakewood","State":"NJ","Api_key":["R","Api_key",1],"Key":"AIzaSyBOtVjKr3D0vZmwg1QlxCy6SR4rVQenaPU","Phone_Number":"<h5><span class=\"fa fa-phone\"></span>732-367-3400</h5>","Address":"234 2nd street, Lakewood, NJ, "}},{"id":23,"fields":{"Hechsher_Cert":"KCL","Address1":"2 Augusta Blvd","Weekday":"5:30 PM - 9:45 PM","Weekend":"Weekends Closed","Special":"","Dairy_Meat":"Meat","Type":["L","Dine in"],"Website":"","City":26,"Address_2nd_Line":"","Price_Point":"$$$","Price_Point_Option_2":"$100+","Zip_Code":0,"Lat":40.0660902,"Lng":-74.2449475,"Weekday_Pre_Text":"Mon-Thurs","Phone_Number2":"732-901-0344","Name":"Char Q","strCity":"Lakewood","State":"NJ","Api_key":["R","Api_key",1],"Key":"AIzaSyBOtVjKr3D0vZmwg1QlxCy6SR4rVQenaPU","Phone_Number":"<h5><span class=\"fa fa-phone\"></span>732-901-0344</h5>","Address":"2 Augusta Blvd, Lakewood, NJ, "}},{"id":24,"fields":{"Hechsher_Cert":"KCL","Address1":"399 Monmouth Avenue","Weekday":"6:00 PM - 10:00 PM","Weekend":"Weekends Closed","Special":"","Dairy_Meat":"Meat","Type":["L","Dine in"],"Website":"","City":26,"Address_2nd_Line":"","Price_Point":"$$$","Price_Point_Option_2":"$100+","Zip_Code":0,"Lat":40.09440559999999,"Lng":-74.2097805,"Weekday_Pre_Text":"Mon-Thurs","Phone_Number2":"732-534-6000","Name":"Entree","strCity":"Lakewood","State":"NJ","Api_key":["R","Api_key",1],"Key":"AIzaSyBOtVjKr3D0vZmwg1QlxCy6SR4rVQenaPU","Phone_Number":"<h5><span class=\"fa fa-phone\"></span>732-534-6000</h5>","Address":"399 Monmouth Avenue, Lakewood, NJ, "}},{"id":25,"fields":{"Hechsher_Cert":"KCL","Address1":"978 River Avenue","Weekday":"5:00 PM - 10:30 PM","Weekend":"Weekends Closed","Special":"","Dairy_Meat":"Meat","Type":["L","Dine in"],"Website":"","City":26,"Address_2nd_Line":"","Price_Point":"$$","Price_Point_Option_2":"$50–100","Zip_Code":0,"Lat":40.0614374,"Lng":-74.2197911,"Weekday_Pre_Text":"Mon-Thurs","Phone_Number2":"732-994-7878","Name":"Estreia","strCity":"Lakewood","State":"NJ","Api_key":["R","Api_key",1],"Key":"AIzaSyBOtVjKr3D0vZmwg1QlxCy6SR4rVQenaPU","Phone_Number":"<h5><span class=\"fa fa-phone\"></span>732-994-7878</h5>","Address":"978 River Avenue, Lakewood, NJ, "}},{"id":26,"fields":{"Hechsher_Cert":"Tartikov","Address1":"276 Atlantic City Blvd","Weekday":"5:00 PM - 11:00 PM","Weekend":"Weekends Closed","Special":"","Dairy_Meat":"Meat","Type":["L","Dine in"],"Website":"","City":26,"Address_2nd_Line":"","Price_Point":"$$$","Price_Point_Option_2":"$100+","Zip_Code":0,"Lat":39.9315705,"Lng":-74.17797709999999,"Weekday_Pre_Text":"Mon-Thurs","Phone_Number2":"732-733-4199","Name":"Lamppost","strCity":"Lakewood","State":"NJ","Api_key":["R","Api_key",1],"Key":"AIzaSyBOtVjKr3D0vZmwg1QlxCy6SR4rVQenaPU","Phone_Number":"<h5><span class=\"fa fa-phone\"></span>732-733-4199</h5>","Address":"276 Atlantic City Blvd, Lakewood, NJ, "}},{"id":28,"fields":{"Hechsher_Cert":"KCL","Address1":"1580 Lakewood Road","Weekday":"12:00 PM - 10:00 PM","Weekend":"Weekends Closed","Special":"","Dairy_Meat":"Meat","Type":["L","Dine in"],"Website":"","City":26,"Address_2nd_Line":"","Price_Point":"$$","Price_Point_Option_2":"$50–100","Zip_Code":0,"Lat":40.0071675,"Lng":-74.2158003,"Weekday_Pre_Text":"Mon-Thurs","Phone_Number2":"732.660.1700","Name":"Tapas","strCity":"Lakewood","State":"NJ","Api_key":["R","Api_key",1],"Key":"AIzaSyBOtVjKr3D0vZmwg1QlxCy6SR4rVQenaPU","Phone_Number":"<h5><span class=\"fa fa-phone\"></span>732.660.1700</h5>","Address":"1580 Lakewood Road, Lakewood, NJ, "}},{"id":29,"fields":{"Hechsher_Cert":"KCL","Address1":"115 Clifton Avenue","Weekday":"6:00 PM - 12:00 AM","Weekend":"Weekends Closed","Special":"","Dairy_Meat":"Meat","Type":["L","Dine in"],"Website":"","City":26,"Address_2nd_Line":"","Price_Point":"$$","Price_Point_Option_2":"$30–50","Zip_Code":0,"Lat":40.0917533,"Lng":-74.21430990000002,"Weekday_Pre_Text":"Mon-Thurs","Phone_Number2":"848-318-2126","Name":"Taquito","strCity":"Lakewood","State":"NJ","Api_key":["R","Api_key",1],"Key":"AIzaSyBOtVjKr3D0vZmwg1QlxCy6SR4rVQenaPU","Phone_Number":"<h5><span class=\"fa fa-phone\"></span>848-318-2126</h5>","Address":"115 Clifton Avenue, Lakewood, NJ, "}},{"id":30,"fields":{"Hechsher_Cert":"Tartikov","Address1":"1600 NJ-70","Weekday":"5:00 PM - 10:30 PM","Weekend":"Sun: 4:00 PM - 10:30 PM","Special":"","Dairy_Meat":"Meat","Type":["L","Dine in"],"Website":"","City":26,"Address_2nd_Line":"","Price_Point":"$$$","Price_Point_Option_2":"$100+","Zip_Code":0,"Lat":40.0532986,"Lng":-74.1714977,"Weekday_Pre_Text":"Mon-Thurs","Phone_Number2":"732-523-5999","Name":"The Loft Steakhouse","strCity":"Lakewood","State":"NJ","Api_key":["R","Api_key",1],"Key":"AIzaSyBOtVjKr3D0vZmwg1QlxCy6SR4rVQenaPU","Phone_Number":"<h5><span class=\"fa fa-phone\"></span>732-523-5999</h5>","Address":"1600 NJ-70, Lakewood, NJ, "}},{"id":31,"fields":{"Hechsher_Cert":"TP","Address1":"700 Cedarbridge Avenue","Weekday":"5:30 PM - 10:45 PM","Weekend":"Weekends Closed","Special":"","Dairy_Meat":"Meat","Type":["L","Dine in"],"Website":"","City":26,"Address_2nd_Line":"","Price_Point":"$$$","Price_Point_Option_2":"$100+","Zip_Code":0,"Lat":40.0783323,"Lng":-74.19312289999999,"Weekday_Pre_Text":"Mon-Thurs","Phone_Number2":"732-724-5001","Name":"Tomahawk Steak House","strCity":"Lakewood","State":"NJ","Api_key":["R","Api_key",1],"Key":"AIzaSyBOtVjKr3D0vZmwg1QlxCy6SR4rVQenaPU","Phone_Number":"<h5><span class=\"fa fa-phone\"></span>732-724-5001</h5>","Address":"700 Cedarbridge Avenue, Lakewood, NJ, "}},{"id":32,"fields":{"Hechsher_Cert":"KCL","Address1":"1135 E Veterans Hwy","Weekday":"11:00 AM - 11:00 PM","Weekend":"4:30 PM","Special":"1:00","Dairy_Meat":"Dairy","Type":["L","Ice Cream"],"Website":"","City":4,"Address_2nd_Line":"","Price_Point":"$$","Price_Point_Option_2":"$10–20","Zip_Code":0,"Lat":40.0845938,"Lng":-74.26653859999999,"Weekday_Pre_Text":"Mon-Thurs","Phone_Number2":"732-377-2445","Name":"Averys & Jays","strCity":"Jackson","State":"NJ","Api_key":["R","Api_key",1],"Key":"AIzaSyBOtVjKr3D0vZmwg1QlxCy6SR4rVQenaPU","Phone_Number":"<h5><span class=\"fa fa-phone\"></span>732-377-2445</h5>","Address":"1135 E Veterans Hwy, Jackson, NJ, "}},{"id":33,"fields":{"Hechsher_Cert":"KCL","Address1":"12 America Avenue","Weekday":"10:30 AM - 11:30 AM","Weekend":"10:00 AM - 3:30 PM","Special":"12:30 winter","Dairy_Meat":"Dairy","Type":["L","Ice Cream"],"Website":"","City":26,"Address_2nd_Line":"","Price_Point":"$$","Price_Point_Option_2":"$10–20","Zip_Code":0,"Lat":40.0797695,"Lng":-74.18351170000001,"Weekday_Pre_Text":"Mon-Thurs","Phone_Number2":"732-708-5999","Name":"Cream Gelateria And Pasticceria","strCity":"Lakewood","State":"NJ","Api_key":["R","Api_key",1],"Key":"AIzaSyBOtVjKr3D0vZmwg1QlxCy6SR4rVQenaPU","Phone_Number":"<h5><span class=\"fa fa-phone\"></span>732-708-5999</h5>","Address":"12 America Avenue, Lakewood, NJ, "}},{"id":34,"fields":{"Hechsher_Cert":"KCL","Address1":"939 River Avenue","Weekday":"7:30 AM - 7:00 PM","Weekend":"2:00 PM","Special":"12:00 winter","Dairy_Meat":"Dairy","Type":["L","Cafe"],"Website":"","City":26,"Address_2nd_Line":"","Price_Point":"$$","Price_Point_Option_2":"$10–20","Zip_Code":0,"Lat":40.063375,"Lng":-74.2189283,"Weekday_Pre_Text":"Mon-Thurs","Phone_Number2":"732-367-5282","Name":"French Press","strCity":"Lakewood","State":"NJ","Api_key":["R","Api_key",1],"Key":"AIzaSyBOtVjKr3D0vZmwg1QlxCy6SR4rVQenaPU","Phone_Number":"<h5><span class=\"fa fa-phone\"></span>732-367-5282</h5>","Address":"939 River Avenue, Lakewood, NJ, "}},{"id":35,"fields":{"Hechsher_Cert":"KCL","Address1":"95 E Kennedy Blvd","Weekday":"7:30 AM - 7:00 PM","Weekend":"4:00 PM","Special":"12:00 winter","Dairy_Meat":"Dairy","Type":["L","Cafe"],"Website":"","City":26,"Address_2nd_Line":"","Price_Point":"$$","Price_Point_Option_2":"$10–20","Zip_Code":0,"Lat":40.1077742,"Lng":-74.2180243,"Weekday_Pre_Text":"Mon-Thurs","Phone_Number2":"(732) 370-5282","Name":"French Press","strCity":"Lakewood","State":"NJ","Api_key":["R","Api_key",1],"Key":"AIzaSyBOtVjKr3D0vZmwg1QlxCy6SR4rVQenaPU","Phone_Number":"<h5><span class=\"fa fa-phone\"></span>(732) 370-5282</h5>","Address":"95 E Kennedy Blvd, Lakewood, NJ, "}},{"id":36,"fields":{"Hechsher_Cert":"ZY","Address1":"6465 US-9 N, ","Weekday":"9:00 AM - 5:00 PM","Weekend":"1:30 PM","Special":"","Dairy_Meat":"Dairy","Type":["L","Cafe"],"Website":"","City":5,"Address_2nd_Line":"","Price_Point":"$$","Price_Point_Option_2":"$10–20","Zip_Code":0,"Lat":40.1152784,"Lng":-74.2179771,"Weekday_Pre_Text":"Mon-Thurs","Phone_Number2":"(732) 707-7123","Name":"Joseph & David","strCity":"Howell","State":"NJ","Api_key":["R","Api_key",1],"Key":"AIzaSyBOtVjKr3D0vZmwg1QlxCy6SR4rVQenaPU","Phone_Number":"<h5><span class=\"fa fa-phone\"></span>(732) 707-7123</h5>","Address":"6465 US-9 N, , Howell, NJ, "}},{"id":37,"fields":{"Hechsher_Cert":"ZY","Address1":"21 S Hope Chapel, ","Weekday":"9:00 AM - 8:00 PM","Weekend":"2:00 PM","Special":"11:00 winter","Dairy_Meat":"Dairy","Type":["L","Cafe"],"Website":"","City":4,"Address_2nd_Line":"","Price_Point":"$$","Price_Point_Option_2":"$10–20","Zip_Code":0,"Lat":40.0819072,"Lng":-74.2657081,"Weekday_Pre_Text":"Mon-Thurs","Phone_Number2":"(732) 961-6298","Name":"Joseph & David","strCity":"Jackson","State":"NJ","Api_key":["R","Api_key",1],"Key":"AIzaSyBOtVjKr3D0vZmwg1QlxCy6SR4rVQenaPU","Phone_Number":"<h5><span class=\"fa fa-phone\"></span>(732) 961-6298</h5>","Address":"21 S Hope Chapel, , Jackson, NJ, "}},{"id":38,"fields":{"Hechsher_Cert":"CRC","Address1":"700 Cedarbridge Avenue","Weekday":"8:00 AM - 9:00 AM","Weekend":"3:00 PM","Special":"","Dairy_Meat":"Dairy","Type":["L","Cafe"],"Website":"","City":26,"Address_2nd_Line":"","Price_Point":"$$","Price_Point_Option_2":"$10–20","Zip_Code":0,"Lat":40.0783323,"Lng":-74.19312289999999,"Weekday_Pre_Text":"Mon-Thurs","Phone_Number2":"(732) 503-5347","Name":"Jus By Julie","strCity":"Lakewood","State":"NJ","Api_key":["R","Api_key",1],"Key":"AIzaSyBOtVjKr3D0vZmwg1QlxCy6SR4rVQenaPU","Phone_Number":"<h5><span class=\"fa fa-phone\"></span>(732) 503-5347</h5>","Address":"700 Cedarbridge Avenue, Lakewood, NJ, "}},{"id":39,"fields":{"Hechsher_Cert":"KOA - D","Address1":"1900 Shorrock St","Weekday":"6:00 PM - 10:00 PM","Weekend":"6:00 PM - 10:00 PM","Special":"10:00","Dairy_Meat":"Dairy","Type":["L","Ice Cream"],"Website":"","City":26,"Address_2nd_Line":"","Price_Point":"$$","Price_Point_Option_2":"$10–20","Zip_Code":0,"Lat":40.0546875,"Lng":-74.1636771,"Weekday_Pre_Text":"Mon-Thurs","Phone_Number2":"","Name":"Krispy Kreme","strCity":"Lakewood","State":"NJ","Api_key":["R","Api_key",1],"Key":"AIzaSyBOtVjKr3D0vZmwg1QlxCy6SR4rVQenaPU","Phone_Number":"<h5><span class=\"fa fa-phone\"></span></h5>","Address":"1900 Shorrock St, Lakewood, NJ, "}},{"id":40,"fields":{"Hechsher_Cert":"KCL","Address1":"2172 Lakewood Rd, ","Weekday":"10:00 AM - 10:00 PM","Weekend":"10:00 AM - 2:00 PM","Special":"8 - 12","Dairy_Meat":"Dairy","Type":["L","Ice Cream"],"Website":"","City":24,"Address_2nd_Line":"","Price_Point":"$","Price_Point_Option_2":"$1–10","Zip_Code":0,"Lat":40.0333698,"Lng":-74.2252446,"Weekday_Pre_Text":"Mon-Thurs","Phone_Number2":"","Name":"Miele Gelateria","strCity":"Toms River","State":"NJ","Api_key":["R","Api_key",1],"Key":"AIzaSyBOtVjKr3D0vZmwg1QlxCy6SR4rVQenaPU","Phone_Number":"<h5><span class=\"fa fa-phone\"></span></h5>","Address":"2172 Lakewood Rd, , Toms River, NJ, "}},{"id":41,"fields":{"Hechsher_Cert":"KCL","Address1":"916 River Avenue","Weekday":"11:00 AM - 7:00 PM","Weekend":"9:00 AM - 3:00 PM","Special":"12:00","Dairy_Meat":"Dairy","Type":["L","Cafe"],"Website":"","City":26,"Address_2nd_Line":"","Price_Point":"$","Price_Point_Option_2":"$1–10","Zip_Code":0,"Lat":40.0637711,"Lng":-74.2198209,"Weekday_Pre_Text":"Mon-Thurs","Phone_Number2":"732.600.3325","Name":"Peyrot Arrangements","strCity":"Lakewood","State":"NJ","Api_key":["R","Api_key",1],"Key":"AIzaSyBOtVjKr3D0vZmwg1QlxCy6SR4rVQenaPU","Phone_Number":"<h5><span class=\"fa fa-phone\"></span>732.600.3325</h5>","Address":"916 River Avenue, Lakewood, NJ, "}},{"id":42,"fields":{"Hechsher_Cert":"RBY","Address1":"681 River Avenue","Weekday":"12:00 PM - 10:00 PM (Thu 11:00 PM)","Weekend":"4:00 PM","Special":"1:00","Dairy_Meat":"Dairy","Type":["L","Ice Cream"],"Website":"","City":26,"Address_2nd_Line":"","Price_Point":"$","Price_Point_Option_2":"$1–10","Zip_Code":0,"Lat":40.07184340000001,"Lng":-74.2170368,"Weekday_Pre_Text":"Mon-Thurs","Phone_Number2":"(848) 777-4827","Name":"Rita's Ice","strCity":"Lakewood","State":"NJ","Api_key":["R","Api_key",1],"Key":"AIzaSyBOtVjKr3D0vZmwg1QlxCy6SR4rVQenaPU","Phone_Number":"<h5><span class=\"fa fa-phone\"></span>(848) 777-4827</h5>","Address":"681 River Avenue, Lakewood, NJ, "}},{"id":43,"fields":{"Hechsher_Cert":"RBY","Address1":"4502 US-9 S","Weekday":"12:00 PM - 9:00 PM","Weekend":"12:00 PM - 9:00 PM","Special":"9:00","Dairy_Meat":"Dairy","Type":["L","Ice Cream"],"Website":"","City":5,"Address_2nd_Line":"","Price_Point":"$","Price_Point_Option_2":"$1–10","Zip_Code":0,"Lat":40.1439397,"Lng":-74.2263514,"Weekday_Pre_Text":"Mon-Thurs","Phone_Number2":"(848) 777-4828","Name":"Rita's Ice","strCity":"Howell","State":"NJ","Api_key":["R","Api_key",1],"Key":"AIzaSyBOtVjKr3D0vZmwg1QlxCy6SR4rVQenaPU","Phone_Number":"<h5><span class=\"fa fa-phone\"></span>(848) 777-4828</h5>","Address":"4502 US-9 S, Howell, NJ, "}},{"id":44,"fields":{"Hechsher_Cert":"KCL","Address1":"1091 River Avenue","Weekday":"10:00 AM - 9:30 PM","Weekend":"9:00 AM - 2:00 PM","Special":"12:00","Dairy_Meat":"Dairy","Type":["L","Ice Cream"],"Website":"","City":26,"Address_2nd_Line":"","Price_Point":"$","Price_Point_Option_2":"$1–10","Zip_Code":0,"Lat":40.0575427,"Lng":-74.2196384,"Weekday_Pre_Text":"Mon-Thurs","Phone_Number2":"(732) 364-1500","Name":"Sprinkles","strCity":"Lakewood","State":"NJ","Api_key":["R","Api_key",1],"Key":"AIzaSyBOtVjKr3D0vZmwg1QlxCy6SR4rVQenaPU","Phone_Number":"<h5><span class=\"fa fa-phone\"></span>(732) 364-1500</h5>","Address":"1091 River Avenue, Lakewood, NJ, "}},{"id":45,"fields":{"Hechsher_Cert":"KCL","Address1":"1700 Madison Avenue","Weekday":"10:00 AM - 9:30 PM","Weekend":"9:00 AM - 2:00 PM","Special":"12:00","Dairy_Meat":"Dairy","Type":["L","Ice Cream"],"Website":"","City":26,"Address_2nd_Line":"","Price_Point":"$","Price_Point_Option_2":"$1–10","Zip_Code":0,"Lat":40.1083724,"Lng":-74.2216346,"Weekday_Pre_Text":"Mon-Thurs","Phone_Number2":"(732) 364-1500","Name":"Sprinkles","strCity":"Lakewood","State":"NJ","Api_key":["R","Api_key",1],"Key":"AIzaSyBOtVjKr3D0vZmwg1QlxCy6SR4rVQenaPU","Phone_Number":"<h5><span class=\"fa fa-phone\"></span>(732) 364-1500</h5>","Address":"1700 Madison Avenue, Lakewood, NJ, "}},{"id":46,"fields":{"Hechsher_Cert":"KCL","Address1":"402 Lexington Avenue","Weekday":"11:00 AM - 10:30 PM","Weekend":"4:30 PM","Special":"1:00","Dairy_Meat":"Dairy","Type":["L","Ice Cream"],"Website":"","City":26,"Address_2nd_Line":"","Price_Point":"$","Price_Point_Option_2":"$1–10","Zip_Code":0,"Lat":40.0946085,"Lng":-74.2128266,"Weekday_Pre_Text":"Mon-Thurs","Phone_Number2":"(732) 730-0028","Name":"Yismach Yisrael Ice Cream","strCity":"Lakewood","State":"NJ","Api_key":["R","Api_key",1],"Key":"AIzaSyBOtVjKr3D0vZmwg1QlxCy6SR4rVQenaPU","Phone_Number":"<h5><span class=\"fa fa-phone\"></span>(732) 730-0028</h5>","Address":"402 Lexington Avenue, Lakewood, NJ, "}},{"id":47,"fields":{"Hechsher_Cert":"KCL","Address1":"114 Hillside Blvd","Weekday":"11:00 AM - 9:00 PM","Weekend":"2:30 PM","Special":"12:00","Dairy_Meat":"Dairy","Type":["L","Ice Cream"],"Website":"","City":26,"Address_2nd_Line":"","Price_Point":"$","Price_Point_Option_2":"$1–10","Zip_Code":0,"Lat":40.087203,"Lng":-74.2555605,"Weekday_Pre_Text":"Mon-Thurs","Phone_Number2":"(848) 245-0326","Name":"Yismach Yisrael Ice Cream","strCity":"Lakewood","State":"NJ","Api_key":["R","Api_key",1],"Key":"AIzaSyBOtVjKr3D0vZmwg1QlxCy6SR4rVQenaPU","Phone_Number":"<h5><span class=\"fa fa-phone\"></span>(848) 245-0326</h5>","Address":"114 Hillside Blvd, Lakewood, NJ, "}},{"id":48,"fields":{"Hechsher_Cert":"","Address1":"1328 River Avenue","Weekday":"8:00 AM - 5:00 PM","Weekend":"8:00 AM - 3:00 PM","Special":"","Dairy_Meat":"Dairy","Type":["L","Cafe"],"Website":"","City":26,"Address_2nd_Line":"","Price_Point":"$$","Price_Point_Option_2":"$10–20","Zip_Code":0,"Lat":40.0514508,"Lng":-74.2241889,"Weekday_Pre_Text":"Mon-Thurs","Phone_Number2":"(732) 375-0800","Name":"Avocado","strCity":"Lakewood","State":"NJ","Api_key":["R","Api_key",1],"Key":"AIzaSyBOtVjKr3D0vZmwg1QlxCy6SR4rVQenaPU","Phone_Number":"<h5><span class=\"fa fa-phone\"></span>(732) 375-0800</h5>","Address":"1328 River Avenue, Lakewood, NJ, "}},{"id":49,"fields":{"Hechsher_Cert":"ZY","Address1":"2080 W County Line, ","Weekday":"8:00 AM - 4:00 PM","Weekend":"2:00 PM","Special":"","Dairy_Meat":"Dairy","Type":["L","Bagels"],"Website":"","City":4,"Address_2nd_Line":"","Price_Point":"$$","Price_Point_Option_2":"$10–20","Zip_Code":0,"Lat":40.1219466,"Lng":-74.2586165,"Weekday_Pre_Text":"Mon-Thurs","Phone_Number2":"(732) 813-3990","Name":"Bagel King","strCity":"Jackson","State":"NJ","Api_key":["R","Api_key",1],"Key":"AIzaSyBOtVjKr3D0vZmwg1QlxCy6SR4rVQenaPU","Phone_Number":"<h5><span class=\"fa fa-phone\"></span>(732) 813-3990</h5>","Address":"2080 W County Line, , Jackson, NJ, "}},{"id":50,"fields":{"Hechsher_Cert":"KCL","Address1":"380 Clifton Avenue","Weekday":"6:45 AM - 6:00 PM","Weekend":"2:00 PM","Special":"","Dairy_Meat":"Dairy","Type":["L","Bagels"],"Website":"","City":26,"Address_2nd_Line":"","Price_Point":"$","Price_Point_Option_2":"$1–10","Zip_Code":0,"Lat":40.0938173,"Lng":-74.2151963,"Weekday_Pre_Text":"Mon-Thurs","Phone_Number2":"(732) 363-1115","Name":"Bagel Nosh","strCity":"Lakewood","State":"NJ","Api_key":["R","Api_key",1],"Key":"AIzaSyBOtVjKr3D0vZmwg1QlxCy6SR4rVQenaPU","Phone_Number":"<h5><span class=\"fa fa-phone\"></span>(732) 363-1115</h5>","Address":"380 Clifton Avenue, Lakewood, NJ, "}},{"id":51,"fields":{"Hechsher_Cert":"KCL","Address1":"12 America Avenue","Weekday":"10:00 AM - 8:45 PM","Weekend":"Weekends Closed","Special":"11:30 winter","Dairy_Meat":"Dairy","Type":["L","Cafe"],"Website":"","City":26,"Address_2nd_Line":"","Price_Point":"$$","Price_Point_Option_2":"$20–30","Zip_Code":0,"Lat":40.0797695,"Lng":-74.18351170000001,"Weekday_Pre_Text":"Mon-Thurs","Phone_Number2":"(732) 367-0005","Name":"Cafotteria","strCity":"Lakewood","State":"NJ","Api_key":["R","Api_key",1],"Key":"AIzaSyBOtVjKr3D0vZmwg1QlxCy6SR4rVQenaPU","Phone_Number":"<h5><span class=\"fa fa-phone\"></span>(732) 367-0005</h5>","Address":"12 America Avenue, Lakewood, NJ, "}},{"id":52,"fields":{"Hechsher_Cert":"KCL","Address1":"415 Cedar Bridge Avenue","Weekday":"8:00 AM - 6:45 PM","Weekend":"1:00 PM","Special":"11:45 winter","Dairy_Meat":"Dairy","Type":["L","Cafe"],"Website":"","City":26,"Address_2nd_Line":"","Price_Point":"$","Price_Point_Option_2":"$10–20","Zip_Code":0,"Lat":40.0847403,"Lng":-74.20518419999999,"Weekday_Pre_Text":"Mon-Thurs","Phone_Number2":"(732) 942-0700","Name":"Circa","strCity":"Lakewood","State":"NJ","Api_key":["R","Api_key",1],"Key":"AIzaSyBOtVjKr3D0vZmwg1QlxCy6SR4rVQenaPU","Phone_Number":"<h5><span class=\"fa fa-phone\"></span>(732) 942-0700</h5>","Address":"415 Cedar Bridge Avenue, Lakewood, NJ, "}},{"id":53,"fields":{"Hechsher_Cert":"LKO - D","Address1":"1091 River Avenue","Weekday":"5:00 PM - 8:00 PM","Weekend":"5:00 PM - 8:00 PM","Special":"","Dairy_Meat":"Dairy","Type":["L","Cafe"],"Website":"","City":26,"Address_2nd_Line":"","Price_Point":"$","Price_Point_Option_2":"$1–10","Zip_Code":0,"Lat":40.0575427,"Lng":-74.2196384,"Weekday_Pre_Text":"Mon-Thurs","Phone_Number2":"(732) 942-1678","Name":"Dunkin","strCity":"Lakewood","State":"NJ","Api_key":["R","Api_key",1],"Key":"AIzaSyBOtVjKr3D0vZmwg1QlxCy6SR4rVQenaPU","Phone_Number":"<h5><span class=\"fa fa-phone\"></span>(732) 942-1678</h5>","Address":"1091 River Avenue, Lakewood, NJ, "}},{"id":54,"fields":{"Hechsher_Cert":"ZY","Address1":"6834 U.S. 9, ","Weekday":"11:00 AM - 9:00 PM","Weekend":"Weekends Closed","Special":"","Dairy_Meat":"Dairy","Type":["L","Dine in"],"Website":"","City":5,"Address_2nd_Line":"","Price_Point":"$","Price_Point_Option_2":"$20–30","Zip_Code":0,"Lat":40.112628,"Lng":-74.219352,"Weekday_Pre_Text":"Mon-Thurs","Phone_Number2":"(848) 261-4444","Name":"Fish Grill","strCity":"Howell","State":"NJ","Api_key":["R","Api_key",1],"Key":"AIzaSyBOtVjKr3D0vZmwg1QlxCy6SR4rVQenaPU","Phone_Number":"<h5><span class=\"fa fa-phone\"></span>(848) 261-4444</h5>","Address":"6834 U.S. 9, , Howell, NJ, "}},{"id":55,"fields":{"Hechsher_Cert":"KCL","Address1":"1203 River Avenue","Weekday":"7:00 AM - 5:00 PM","Weekend":"3:00 PM","Special":"","Dairy_Meat":"Dairy","Type":["L","Bagels"],"Website":"","City":26,"Address_2nd_Line":"","Price_Point":"$$","Price_Point_Option_2":"$10–20","Zip_Code":0,"Lat":40.0547803,"Lng":-74.2202863,"Weekday_Pre_Text":"Mon-Thurs","Phone_Number2":"(732) 806-9898","Name":"Four Corners","strCity":"Lakewood","State":"NJ","Api_key":["R","Api_key",1],"Key":"AIzaSyBOtVjKr3D0vZmwg1QlxCy6SR4rVQenaPU","Phone_Number":"<h5><span class=\"fa fa-phone\"></span>(732) 806-9898</h5>","Address":"1203 River Avenue, Lakewood, NJ, "}},{"id":56,"fields":{"Hechsher_Cert":"KCL","Address1":"150 James st","Weekday":"7:00 AM - 5:00 PM","Weekend":"3:00 PM","Special":"","Dairy_Meat":"Dairy","Type":["L","Bagels"],"Website":"","City":26,"Address_2nd_Line":"","Price_Point":"$$","Price_Point_Option_2":"$10–20","Zip_Code":0,"Lat":40.0791563,"Lng":-74.2258396,"Weekday_Pre_Text":"Mon-Thurs","Phone_Number2":"(732) 730-2381","Name":"Four Corners","strCity":"Lakewood","State":"NJ","Api_key":["R","Api_key",1],"Key":"AIzaSyBOtVjKr3D0vZmwg1QlxCy6SR4rVQenaPU","Phone_Number":"<h5><span class=\"fa fa-phone\"></span>(732) 730-2381</h5>","Address":"150 James st, Lakewood, NJ, "}},{"id":57,"fields":{"Hechsher_Cert":"KCL","Address1":"600 E County Line Rd","Weekday":"7:00 AM - 5:00 PM","Weekend":"3:00 PM","Special":"","Dairy_Meat":"Dairy","Type":["L","Bagels"],"Website":"","City":26,"Address_2nd_Line":"","Price_Point":"$$","Price_Point_Option_2":"$10–20","Zip_Code":0,"Lat":40.1048587,"Lng":-74.2050149,"Weekday_Pre_Text":"Mon-Thurs","Phone_Number2":"(732) 730-2380","Name":"Four Corners","strCity":"Lakewood","State":"NJ","Api_key":["R","Api_key",1],"Key":"AIzaSyBOtVjKr3D0vZmwg1QlxCy6SR4rVQenaPU","Phone_Number":"<h5><span class=\"fa fa-phone\"></span>(732) 730-2380</h5>","Address":"600 E County Line Rd, Lakewood, NJ, "}},{"id":58,"fields":{"Hechsher_Cert":"CRC","Address1":"681 River Avenue","Weekday":"8:00 AM - 5:00 PM","Weekend":"3:00 PM","Special":"","Dairy_Meat":"Dairy","Type":["L","Bagels"],"Website":"","City":26,"Address_2nd_Line":"","Price_Point":"$","Price_Point_Option_2":"$1–10","Zip_Code":0,"Lat":40.07184340000001,"Lng":-74.2170368,"Weekday_Pre_Text":"Mon-Thurs","Phone_Number2":"","Name":"Hot Bagels","strCity":"Lakewood","State":"NJ","Api_key":["R","Api_key",1],"Key":"AIzaSyBOtVjKr3D0vZmwg1QlxCy6SR4rVQenaPU","Phone_Number":"<h5><span class=\"fa fa-phone\"></span></h5>","Address":"681 River Avenue, Lakewood, NJ, "}},{"id":59,"fields":{"Hechsher_Cert":"CRC","Address1":"232 2nd St","Weekday":"6:45 AM - 6:00 PM","Weekend":"3:00 PM","Special":"8:00 - 12 winter","Dairy_Meat":"Dairy","Type":["L","Bagels"],"Website":"","City":26,"Address_2nd_Line":"","Price_Point":"$","Price_Point_Option_2":"$1–10","Zip_Code":0,"Lat":40.0921041,"Lng":-74.21321999999999,"Weekday_Pre_Text":"Mon-Thurs","Phone_Number2":"(732) 772-3444","Name":"Hot Bagels","strCity":"Lakewood","State":"NJ","Api_key":["R","Api_key",1],"Key":"AIzaSyBOtVjKr3D0vZmwg1QlxCy6SR4rVQenaPU","Phone_Number":"<h5><span class=\"fa fa-phone\"></span>(732) 772-3444</h5>","Address":"232 2nd St, Lakewood, NJ, "}},{"id":60,"fields":{"Hechsher_Cert":"CRC","Address1":"75 E Kennedy Blvd","Weekday":"7:00 AM - 6:00 PM","Weekend":"7:00 AM - 4:00 PM","Special":"","Dairy_Meat":"Dairy","Type":["L","Bagels"],"Website":"","City":26,"Address_2nd_Line":"","Price_Point":"$","Price_Point_Option_2":"$1–10","Zip_Code":0,"Lat":40.1072391,"Lng":-74.2187261,"Weekday_Pre_Text":"Mon-Thurs","Phone_Number2":"","Name":"Hot Bagels Drive Thru","strCity":"Lakewood","State":"NJ","Api_key":["R","Api_key",1],"Key":"AIzaSyBOtVjKr3D0vZmwg1QlxCy6SR4rVQenaPU","Phone_Number":"<h5><span class=\"fa fa-phone\"></span></h5>","Address":"75 E Kennedy Blvd, Lakewood, NJ, "}},{"id":61,"fields":{"Hechsher_Cert":"KCL","Address1":"21 S Hope Chapel Rd ","Weekday":"11:30 AM - 9:30 PM","Weekend":"3:00 PM","Special":"12:30","Dairy_Meat":"Dairy","Type":["L","Dine in"],"Website":"","City":4,"Address_2nd_Line":"","Price_Point":"$$","Price_Point_Option_2":"$30–50","Zip_Code":0,"Lat":40.0819072,"Lng":-74.2657081,"Weekday_Pre_Text":"Mon-Thurs","Phone_Number2":"(732) 987-5555","Name":"Kalamata Italian Cafe","strCity":"Jackson","State":"NJ","Api_key":["R","Api_key",1],"Key":"AIzaSyBOtVjKr3D0vZmwg1QlxCy6SR4rVQenaPU","Phone_Number":"<h5><span class=\"fa fa-phone\"></span>(732) 987-5555</h5>","Address":"21 S Hope Chapel Rd , Jackson, NJ, "}},{"id":62,"fields":{"Hechsher_Cert":"KCL","Address1":"6791 US-9 N","Weekday":"8:00 AM - 7:00 PM","Weekend":"2:30 PM","Special":"12:00 winter","Dairy_Meat":"Dairy","Type":["L","Cafe"],"Website":"","City":5,"Address_2nd_Line":"","Price_Point":"$","Price_Point_Option_2":"$10–20","Zip_Code":0,"Lat":40.1134785,"Lng":-74.2184339,"Weekday_Pre_Text":"Mon-Thurs","Phone_Number2":"(732) 534-5199","Name":"Kava Coffee","strCity":"Howell","State":"NJ","Api_key":["R","Api_key",1],"Key":"AIzaSyBOtVjKr3D0vZmwg1QlxCy6SR4rVQenaPU","Phone_Number":"<h5><span class=\"fa fa-phone\"></span>(732) 534-5199</h5>","Address":"6791 US-9 N, Howell, NJ, "}},{"id":63,"fields":{"Hechsher_Cert":"KCL","Address1":"375 Monmouth Avenue","Weekday":"7:30 AM - 6:30 PM (Thu 8:00 PM)","Weekend":"2:00 PM","Special":"","Dairy_Meat":"Dairy","Type":["L","Bakery"],"Website":"","City":26,"Address_2nd_Line":"","Price_Point":"$","Price_Point_Option_2":"$10–20","Zip_Code":0,"Lat":40.0942665,"Lng":-74.20983249999999,"Weekday_Pre_Text":"Mon-Thurs","Phone_Number2":"(732) 994-2253","Name":"Korns Bakery","strCity":"Lakewood","State":"NJ","Api_key":["R","Api_key",1],"Key":"AIzaSyBOtVjKr3D0vZmwg1QlxCy6SR4rVQenaPU","Phone_Number":"<h5><span class=\"fa fa-phone\"></span>(732) 994-2253</h5>","Address":"375 Monmouth Avenue, Lakewood, NJ, "}},{"id":64,"fields":{"Hechsher_Cert":"KCL","Address1":"264 Cedar Bridge Avenue","Weekday":"7:30 AM - 5:00 PM","Weekend":"1:30 PM","Special":"11:00 winter","Dairy_Meat":"Dairy","Type":["L","Cafe"],"Website":"","City":26,"Address_2nd_Line":"","Price_Point":"$","Price_Point_Option_2":"$10–20","Zip_Code":0,"Lat":40.085202,"Lng":-74.2083273,"Weekday_Pre_Text":"Mon-Thurs","Phone_Number2":"(732) 534-9940","Name":"Otl Cafe","strCity":"Lakewood","State":"NJ","Api_key":["R","Api_key",1],"Key":"AIzaSyBOtVjKr3D0vZmwg1QlxCy6SR4rVQenaPU","Phone_Number":"<h5><span class=\"fa fa-phone\"></span>(732) 534-9940</h5>","Address":"264 Cedar Bridge Avenue, Lakewood, NJ, "}},{"id":65,"fields":{"Hechsher_Cert":"KCL","Address1":"6794 U.S. 9 S","Weekday":"12:00 PM - 9:30 PM","Weekend":"Weekends Closed","Special":"11:30 winter","Dairy_Meat":"Dairy","Type":["L","Cafe"],"Website":"","City":5,"Address_2nd_Line":"","Price_Point":"$$","Price_Point_Option_2":"$30–50","Zip_Code":0,"Lat":40.1142483,"Lng":-74.2194684,"Weekday_Pre_Text":"Mon-Thurs","Phone_Number2":"(732) 367-0009","Name":"Ottimo Café","strCity":"Howell","State":"NJ","Api_key":["R","Api_key",1],"Key":"AIzaSyBOtVjKr3D0vZmwg1QlxCy6SR4rVQenaPU","Phone_Number":"<h5><span class=\"fa fa-phone\"></span>(732) 367-0009</h5>","Address":"6794 U.S. 9 S, Howell, NJ, "}},{"id":66,"fields":{"Hechsher_Cert":"KCL","Address1":"503 River Avenue","Weekday":"9:00 AM - 4:00 PM","Weekend":"Weekends Closed","Special":"11:40 winter","Dairy_Meat":"Dairy","Type":["L","Cafe"],"Website":"","City":26,"Address_2nd_Line":"","Price_Point":"$","Price_Point_Option_2":"$20–30","Zip_Code":0,"Lat":40.07571,"Lng":-74.2165895,"Weekday_Pre_Text":"Mon-Thurs","Phone_Number2":"(732) 730-7536","Name":"Panini Cafe","strCity":"Lakewood","State":"NJ","Api_key":["R","Api_key",1],"Key":"AIzaSyBOtVjKr3D0vZmwg1QlxCy6SR4rVQenaPU","Phone_Number":"<h5><span class=\"fa fa-phone\"></span>(732) 730-7536</h5>","Address":"503 River Avenue, Lakewood, NJ, "}},{"id":67,"fields":{"Hechsher_Cert":"KCL","Address1":"1700 Madison Avenue","Weekday":"8:00 AM - 5:00 PM","Weekend":"8:00 AM - 3:30 PM","Special":"","Dairy_Meat":"Dairy","Type":["L","Cafe"],"Website":"","City":26,"Address_2nd_Line":"","Price_Point":"$","Price_Point_Option_2":"$20–30","Zip_Code":0,"Lat":40.1083724,"Lng":-74.2216346,"Weekday_Pre_Text":"Mon-Thurs","Phone_Number2":"(732) 415-0088","Name":"Patis Cafe","strCity":"Lakewood","State":"NJ","Api_key":["R","Api_key",1],"Key":"AIzaSyBOtVjKr3D0vZmwg1QlxCy6SR4rVQenaPU","Phone_Number":"<h5><span class=\"fa fa-phone\"></span>(732) 415-0088</h5>","Address":"1700 Madison Avenue, Lakewood, NJ, "}},{"id":68,"fields":{"Hechsher_Cert":"KCL","Address1":"1135 E Veterans Hwy ","Weekday":"7:00 AM - 4:00 PM","Weekend":"7:00 AM - 1:00 PM","Special":"12:00","Dairy_Meat":"Dairy","Type":["L","Bagels"],"Website":"","City":26,"Address_2nd_Line":"Building 1 Unit 9","Price_Point":"$$","Price_Point_Option_2":"$10–20","Zip_Code":0,"Lat":40.08470519999999,"Lng":-74.2641089,"Weekday_Pre_Text":"Mon-Thurs","Phone_Number2":"(732) 835 3000","Name":"Rosemary Artisanal Bagelry","strCity":"Lakewood","State":"NJ","Api_key":["R","Api_key",1],"Key":"AIzaSyBOtVjKr3D0vZmwg1QlxCy6SR4rVQenaPU","Phone_Number":"<h5><span class=\"fa fa-phone\"></span>(732) 835 3000</h5>","Address":"1135 E Veterans Hwy , Lakewood, NJ, "}},{"id":69,"fields":{"Hechsher_Cert":"","Address1":"700 Cedarbridge Avenue","Weekday":"7:00 AM - 6:00 PM","Weekend":"7:00 AM - 2:00 PM","Special":"","Dairy_Meat":"Dairy","Type":["L","Bakery"],"Website":"","City":26,"Address_2nd_Line":"","Price_Point":"$","Price_Point_Option_2":"$10–20","Zip_Code":0,"Lat":40.0783323,"Lng":-74.19312289999999,"Weekday_Pre_Text":"Mon-Thurs","Phone_Number2":"(718) 427-0000","Name":"Sesame","strCity":"Lakewood","State":"NJ","Api_key":["R","Api_key",1],"Key":"AIzaSyBOtVjKr3D0vZmwg1QlxCy6SR4rVQenaPU","Phone_Number":"<h5><span class=\"fa fa-phone\"></span>(718) 427-0000</h5>","Address":"700 Cedarbridge Avenue, Lakewood, NJ, "}},{"id":70,"fields":{"Hechsher_Cert":"KCL","Address1":"214 Clifton Avenue","Weekday":"10:30 AM - 9:00 PM","Weekend":"2:30 PM","Special":"12:00","Dairy_Meat":"Dairy","Type":["L","Sushi"],"Website":"","City":26,"Address_2nd_Line":"","Price_Point":"$","Price_Point_Option_2":"$10–20","Zip_Code":0,"Lat":40.0926366,"Lng":-74.2150436,"Weekday_Pre_Text":"Mon-Thurs","Phone_Number2":"(732) 802-7220","Name":"That Sushi Spot","strCity":"Lakewood","State":"NJ","Api_key":["R","Api_key",1],"Key":"AIzaSyBOtVjKr3D0vZmwg1QlxCy6SR4rVQenaPU","Phone_Number":"<h5><span class=\"fa fa-phone\"></span>(732) 802-7220</h5>","Address":"214 Clifton Avenue, Lakewood, NJ, "}},{"id":71,"fields":{"Hechsher_Cert":"KCL, CRC","Address1":"101 Stonewall Ct ","Weekday":"8:30 AM - 5:30 PM","Weekend":"9:00 AM - 3:30 PM","Special":"11:30","Dairy_Meat":"Dairy","Type":["L","Cafe"],"Website":"","City":26,"Address_2nd_Line":"Unit 1","Price_Point":"$","Price_Point_Option_2":"$10–20","Zip_Code":43,"Lat":40.07815799999999,"Lng":-74.1884723,"Weekday_Pre_Text":"Mon-Thurs","Phone_Number2":"(848) 245-0533","Name":"The Cookie Corner","strCity":"Lakewood","State":"NJ","Api_key":["R","Api_key",1],"Key":"AIzaSyBOtVjKr3D0vZmwg1QlxCy6SR4rVQenaPU","Phone_Number":"<h5><span class=\"fa fa-phone\"></span>(848) 245-0533</h5>","Address":"101 Stonewall Ct , Lakewood, NJ, 08701"}},{"id":72,"fields":{"Hechsher_Cert":"KCL","Address1":"1900 NJ-70","Weekday":"8:00 AM - 4:00 PM (Thu 5:30 PM)","Weekend":"1:30 PM","Special":"Closed","Dairy_Meat":"Dairy","Type":["L","Cafe"],"Website":"","City":27,"Address_2nd_Line":"","Price_Point":"$","Price_Point_Option_2":"$10–20","Zip_Code":44,"Lat":40.021573,"Lng":-74.2698712,"Weekday_Pre_Text":"Mon-Thurs","Phone_Number2":"(732) 941-9124","Name":"Toast Cafe & Restaurant","strCity":"Manchaster","State":"NJ","Api_key":["R","Api_key",1],"Key":"AIzaSyBOtVjKr3D0vZmwg1QlxCy6SR4rVQenaPU","Phone_Number":"<h5><span class=\"fa fa-phone\"></span>(732) 941-9124</h5>","Address":"1900 NJ-70, Manchaster, NJ, 08759"}},{"id":73,"fields":{"Hechsher_Cert":"KCL","Address1":"6736 US-9","Weekday":"11:00 AM - 10:00 PM","Weekend":"Till 2 Hours Before Shabbos","Special":"1:00","Dairy_Meat":"Dairy","Type":["L","Cafe"],"Website":"","City":5,"Address_2nd_Line":"","Price_Point":"$","Price_Point_Option_2":"$10–20","Zip_Code":0,"Lat":40.1135366,"Lng":-74.22084699999999,"Weekday_Pre_Text":"Mon-Thurs","Phone_Number2":"(732) 884 7000","Name":"Tuscany Cafe & Pizzeria","strCity":"Howell","State":"NJ","Api_key":["R","Api_key",1],"Key":"AIzaSyBOtVjKr3D0vZmwg1QlxCy6SR4rVQenaPU","Phone_Number":"<h5><span class=\"fa fa-phone\"></span>(732) 884 7000</h5>","Address":"6736 US-9, Howell, NJ, "}},{"id":75,"fields":{"Hechsher_Cert":"KCL","Address1":"740 Brewers Bridge Rd","Weekday":"11:30 AM - 7:00 PM","Weekend":"11:30 AM - 2:30 PM","Special":"12:30","Dairy_Meat":"Dairy","Type":["L","Pizza"],"Website":"","City":4,"Address_2nd_Line":"","Price_Point":"$","Price_Point_Option_2":"$10–20","Zip_Code":0,"Lat":40.1222977,"Lng":-74.26031069999999,"Weekday_Pre_Text":"Mon-Thurs","Phone_Number2":"(732) 808-0200","Name":"Fialkoffs Pizza - Jackson","strCity":"Jackson","State":"NJ","Api_key":["R","Api_key",1],"Key":"AIzaSyBOtVjKr3D0vZmwg1QlxCy6SR4rVQenaPU","Phone_Number":"<h5><span class=\"fa fa-phone\"></span>(732) 808-0200</h5>","Address":"740 Brewers Bridge Rd, Jackson, NJ, "}},{"id":76,"fields":{"Hechsher_Cert":"ZY","Address1":"2360 Lakewood Rd","Weekday":"12:00 PM - 8:30 PM (Thu 9:30 PM)","Weekend":"Weekends Closed","Special":"12:00","Dairy_Meat":"Dairy","Type":["L","Pizza"],"Website":"","City":26,"Address_2nd_Line":"","Price_Point":"$","Price_Point_Option_2":"$10–20","Zip_Code":0,"Lat":40.0439694,"Lng":-74.2231071,"Weekday_Pre_Text":"Mon-Thurs","Phone_Number2":"(732) 250 -9877","Name":"Giddy's Pizza & Cafe","strCity":"Lakewood","State":"NJ","Api_key":["R","Api_key",1],"Key":"AIzaSyBOtVjKr3D0vZmwg1QlxCy6SR4rVQenaPU","Phone_Number":"<h5><span class=\"fa fa-phone\"></span>(732) 250 -9877</h5>","Address":"2360 Lakewood Rd, Lakewood, NJ, "}},{"id":77,"fields":{"Hechsher_Cert":"KCL","Address1":"1700 Madison Avenue","Weekday":"10:30 AM - 7:30 PM (Thu 8:30 AM)","Weekend":"10:30 AM - 2:30 PM","Special":"1:00","Dairy_Meat":"Dairy","Type":["L","Pizza"],"Website":"","City":26,"Address_2nd_Line":"","Price_Point":"$","Price_Point_Option_2":"$10–20","Zip_Code":0,"Lat":40.1083724,"Lng":-74.2216346,"Weekday_Pre_Text":"Mon-Thurs","Phone_Number2":"(732) 364 9119","Name":"J2 Pizza North","strCity":"Lakewood","State":"NJ","Api_key":["R","Api_key",1],"Key":"AIzaSyBOtVjKr3D0vZmwg1QlxCy6SR4rVQenaPU","Phone_Number":"<h5><span class=\"fa fa-phone\"></span>(732) 364 9119</h5>","Address":"1700 Madison Avenue, Lakewood, NJ, "}},{"id":78,"fields":{"Hechsher_Cert":"KCL","Address1":"945 River Avenue","Weekday":"10:30 AM - 7:15 PM (Thu 7:45 PM)","Weekend":"10:30 AM - 1:30 PM","Special":"1:00","Dairy_Meat":"Dairy","Type":["L","Pizza"],"Website":"","City":26,"Address_2nd_Line":"","Price_Point":"$","Price_Point_Option_2":"$10–20","Zip_Code":0,"Lat":40.06296040000001,"Lng":-74.2184431,"Weekday_Pre_Text":"Mon-Thurs","Phone_Number2":"(732) 844-9119","Name":"J2 Pizza South","strCity":"Lakewood","State":"NJ","Api_key":["R","Api_key",1],"Key":"AIzaSyBOtVjKr3D0vZmwg1QlxCy6SR4rVQenaPU","Phone_Number":"<h5><span class=\"fa fa-phone\"></span>(732) 844-9119</h5>","Address":"945 River Avenue, Lakewood, NJ, "}},{"id":79,"fields":{"Hechsher_Cert":"KCL","Address1":"21 S Hope Chapel Rd","Weekday":"11:30 AM - 9:30 PM","Weekend":"3:00 PM","Special":"12:30","Dairy_Meat":"Dairy","Type":["L","Pizza"],"Website":"","City":4,"Address_2nd_Line":"","Price_Point":"$","Price_Point_Option_2":"$10–20","Zip_Code":0,"Lat":40.0819072,"Lng":-74.2657081,"Weekday_Pre_Text":"Mon-Thurs","Phone_Number2":"(732) 987-5555","Name":"Kalamata Pizza","strCity":"Jackson","State":"NJ","Api_key":["R","Api_key",1],"Key":"AIzaSyBOtVjKr3D0vZmwg1QlxCy6SR4rVQenaPU","Phone_Number":"<h5><span class=\"fa fa-phone\"></span>(732) 987-5555</h5>","Address":"21 S Hope Chapel Rd, Jackson, NJ, "}},{"id":80,"fields":{"Hechsher_Cert":"Rabbi Malik TR","Address1":"","Weekday":"12:00 PM - 8:00 PM (Closed Tue)","Weekend":"Weekends Closed","Special":"1.5h After Zman","Dairy_Meat":"Dairy","Type":["L","Pizza"],"Website":"www.piesondeck.com","City":26,"Address_2nd_Line":"","Price_Point":"$","Price_Point_Option_2":"$10–20","Zip_Code":0,"Lat":40.0864132,"Lng":-74.2152899,"Weekday_Pre_Text":"Mon-Thurs","Phone_Number2":"732-701-7350","Name":"Pies On Deck","strCity":"Lakewood","State":"NJ","Api_key":["R","Api_key",1],"Key":"AIzaSyBOtVjKr3D0vZmwg1QlxCy6SR4rVQenaPU","Phone_Number":"<h5><span class=\"fa fa-phone\"></span>732-701-7350</h5>","Address":", Lakewood, NJ, "}},{"id":81,"fields":{"Hechsher_Cert":"TP","Address1":"1715 Clifton Avenue","Weekday":"10:00 AM - 8:15 PM","Weekend":"Weekends Closed","Special":"11:30","Dairy_Meat":"Dairy","Type":["L","Pizza"],"Website":"","City":26,"Address_2nd_Line":"","Price_Point":"$","Price_Point_Option_2":"$10–20","Zip_Code":0,"Lat":40.1072575,"Lng":-74.2165569,"Weekday_Pre_Text":"Mon-Thurs","Phone_Number2":"(732) 367-0200","Name":"Pizano","strCity":"Lakewood","State":"NJ","Api_key":["R","Api_key",1],"Key":"AIzaSyBOtVjKr3D0vZmwg1QlxCy6SR4rVQenaPU","Phone_Number":"<h5><span class=\"fa fa-phone\"></span>(732) 367-0200</h5>","Address":"1715 Clifton Avenue, Lakewood, NJ, "}},{"id":82,"fields":{"Hechsher_Cert":"KCL","Address1":"916 River Avenue","Weekday":"10:00 AM - 7:00 PM","Weekend":"2:00 PM","Special":"11:30","Dairy_Meat":"Dairy","Type":["L","Pizza"],"Website":"","City":26,"Address_2nd_Line":"","Price_Point":"$","Price_Point_Option_2":"$10–20","Zip_Code":0,"Lat":40.0637711,"Lng":-74.2198209,"Weekday_Pre_Text":"Mon-Thurs","Phone_Number2":"(732) 276-6699","Name":"Pizza On The 9","strCity":"Lakewood","State":"NJ","Api_key":["R","Api_key",1],"Key":"AIzaSyBOtVjKr3D0vZmwg1QlxCy6SR4rVQenaPU","Phone_Number":"<h5><span class=\"fa fa-phone\"></span>(732) 276-6699</h5>","Address":"916 River Avenue, Lakewood, NJ, "}},{"id":83,"fields":{"Hechsher_Cert":"KCL","Address1":"1201 River Avenue","Weekday":"10:00 AM - 7:00 PM (Thu 7:30 PM)","Weekend":"Weekends Closed","Special":"12:00","Dairy_Meat":"Dairy","Type":["L","Pizza"],"Website":"","City":26,"Address_2nd_Line":"","Price_Point":"$","Price_Point_Option_2":"$10–20","Zip_Code":0,"Lat":40.0547516,"Lng":-74.2201795,"Weekday_Pre_Text":"Mon-Thurs","Phone_Number2":"(732) 987-6969","Name":"Pizza On Wheels","strCity":"Lakewood","State":"NJ","Api_key":["R","Api_key",1],"Key":"AIzaSyBOtVjKr3D0vZmwg1QlxCy6SR4rVQenaPU","Phone_Number":"<h5><span class=\"fa fa-phone\"></span>(732) 987-6969</h5>","Address":"1201 River Avenue, Lakewood, NJ, "}},{"id":84,"fields":{"Hechsher_Cert":"KCL","Address1":"100 Hillside Blvd","Weekday":"10:45 AM - 7:30 PM (Thu 8:00 PM)","Weekend":"2:00 PM","Special":"11:30","Dairy_Meat":"Dairy","Type":["L","Pizza"],"Website":"","City":26,"Address_2nd_Line":"","Price_Point":"$","Price_Point_Option_2":"$10–20","Zip_Code":0,"Lat":40.0876584,"Lng":-74.25573299999999,"Weekday_Pre_Text":"Mon-Thurs","Phone_Number2":"(732) 730-1144","Name":"Pizza Place","strCity":"Lakewood","State":"NJ","Api_key":["R","Api_key",1],"Key":"AIzaSyBOtVjKr3D0vZmwg1QlxCy6SR4rVQenaPU","Phone_Number":"<h5><span class=\"fa fa-phone\"></span>(732) 730-1144</h5>","Address":"100 Hillside Blvd, Lakewood, NJ, "}},{"id":85,"fields":{"Hechsher_Cert":"KCL","Address1":"241 4th St","Weekday":"11:00 AM - 7:00 PM (Thu 8:00 PM)","Weekend":"2:30 PM","Special":"1:00","Dairy_Meat":"Dairy","Type":["L","Pizza"],"Website":"","City":26,"Address_2nd_Line":"","Price_Point":"$","Price_Point_Option_2":"$10–20","Zip_Code":0,"Lat":40.0943567,"Lng":-74.2144817,"Weekday_Pre_Text":"Mon-Thurs","Phone_Number2":"(732) 367-0711","Name":"Pizza Plus","strCity":"Lakewood","State":"NJ","Api_key":["R","Api_key",1],"Key":"AIzaSyBOtVjKr3D0vZmwg1QlxCy6SR4rVQenaPU","Phone_Number":"<h5><span class=\"fa fa-phone\"></span>(732) 367-0711</h5>","Address":"241 4th St, Lakewood, NJ, "}},{"id":86,"fields":{"Hechsher_Cert":"KCL","Address1":"32 Clifton Avenue","Weekday":"11:00 AM - 7:00 PM (Thu 7:30 PM)","Weekend":"10:00 AM - 1:30 PM","Special":"","Dairy_Meat":"Dairy","Type":["L","Pizza"],"Website":"","City":26,"Address_2nd_Line":"","Price_Point":"$","Price_Point_Option_2":"$10–20","Zip_Code":0,"Lat":40.090809,"Lng":-74.2146495,"Weekday_Pre_Text":"Mon-Thurs","Phone_Number2":"(732) 367-7977","Name":"Pizzaleh","strCity":"Lakewood","State":"NJ","Api_key":["R","Api_key",1],"Key":"AIzaSyBOtVjKr3D0vZmwg1QlxCy6SR4rVQenaPU","Phone_Number":"<h5><span class=\"fa fa-phone\"></span>(732) 367-7977</h5>","Address":"32 Clifton Avenue, Lakewood, NJ, "}},{"id":87,"fields":{"Hechsher_Cert":"KCL","Address1":"911 E County Line Rd","Weekday":"12:00 PM - 8:00 PM","Weekend":"2:00 PM","Special":"12:00","Dairy_Meat":"Dairy","Type":["L","Pizza"],"Website":"","City":26,"Address_2nd_Line":"","Price_Point":"$","Price_Point_Option_2":"$10–20","Zip_Code":0,"Lat":40.1052209,"Lng":-74.19913629999999,"Weekday_Pre_Text":"Mon-Thurs","Phone_Number2":"(732) 905-0955","Name":"Presto Pizza","strCity":"Lakewood","State":"NJ","Api_key":["R","Api_key",1],"Key":"AIzaSyBOtVjKr3D0vZmwg1QlxCy6SR4rVQenaPU","Phone_Number":"<h5><span class=\"fa fa-phone\"></span>(732) 905-0955</h5>","Address":"911 E County Line Rd, Lakewood, NJ, "}},{"id":88,"fields":{"Hechsher_Cert":"KCL","Address1":"2042 W County Line Rd","Weekday":"11:00 AM - 7:00 PM","Weekend":"10:00 AM - 1:00 PM","Special":"12:00","Dairy_Meat":"Dairy","Type":["L","Pizza"],"Website":"","City":4,"Address_2nd_Line":"","Price_Point":"$","Price_Point_Option_2":"$10–20","Zip_Code":0,"Lat":40.1191935,"Lng":-74.2559019,"Weekday_Pre_Text":"Mon-Thurs","Phone_Number2":"(732) 523-1615","Name":"Say Cheese","strCity":"Jackson","State":"NJ","Api_key":["R","Api_key",1],"Key":"AIzaSyBOtVjKr3D0vZmwg1QlxCy6SR4rVQenaPU","Phone_Number":"<h5><span class=\"fa fa-phone\"></span>(732) 523-1615</h5>","Address":"2042 W County Line Rd, Jackson, NJ, "}},{"id":89,"fields":{"Hechsher_Cert":"KCL","Address1":"95 E Kennedy Blvd","Weekday":"11:00 AM - 9:30 PM","Weekend":"Weekends Closed","Special":"11:15","Dairy_Meat":"Dairy","Type":["L","Pizza"],"Website":"","City":26,"Address_2nd_Line":"","Price_Point":"$","Price_Point_Option_2":"$10–20","Zip_Code":0,"Lat":40.1077742,"Lng":-74.2180243,"Weekday_Pre_Text":"Mon-Thurs","Phone_Number2":"(732) 243-8226","Name":"The Upper Crust","strCity":"Lakewood","State":"NJ","Api_key":["R","Api_key",1],"Key":"AIzaSyBOtVjKr3D0vZmwg1QlxCy6SR4rVQenaPU","Phone_Number":"<h5><span class=\"fa fa-phone\"></span>(732) 243-8226</h5>","Address":"95 E Kennedy Blvd, Lakewood, NJ, "}},{"id":90,"fields":{"Hechsher_Cert":"KCL","Address1":"1091 River Avenue","Weekday":"11:30 AM - 7:00 PM","Weekend":"11:30 AM - 2:30 PM","Special":"12:00","Dairy_Meat":"Dairy","Type":["L","Pizza"],"Website":"","City":26,"Address_2nd_Line":"","Price_Point":"$","Price_Point_Option_2":"$10–20","Zip_Code":0,"Lat":40.0575427,"Lng":-74.2196384,"Weekday_Pre_Text":"Mon-Thurs","Phone_Number2":"(732) 645-9999","Name":"Upper Crust","strCity":"Lakewood","State":"NJ","Api_key":["R","Api_key",1],"Key":"AIzaSyBOtVjKr3D0vZmwg1QlxCy6SR4rVQenaPU","Phone_Number":"<h5><span class=\"fa fa-phone\"></span>(732) 645-9999</h5>","Address":"1091 River Avenue, Lakewood, NJ, "}},{"id":91,"fields":{"Hechsher_Cert":"KCL","Address1":"681 River Avenue","Weekday":"12:00 PM - 8:00 PM","Weekend":"2:00 PM","Special":"12:30","Dairy_Meat":"Dairy","Type":["L","Pizza"],"Website":"","City":26,"Address_2nd_Line":"","Price_Point":"$","Price_Point_Option_2":"$10–20","Zip_Code":0,"Lat":40.07184340000001,"Lng":-74.2170368,"Weekday_Pre_Text":"Mon-Thurs","Phone_Number2":"(732) 905-7411","Name":"Village Pizza","strCity":"Lakewood","State":"NJ","Api_key":["R","Api_key",1],"Key":"AIzaSyBOtVjKr3D0vZmwg1QlxCy6SR4rVQenaPU","Phone_Number":"<h5><span class=\"fa fa-phone\"></span>(732) 905-7411</h5>","Address":"681 River Avenue, Lakewood, NJ, "}}]}